[
  {
    "merchant_name": "The SpaceBar",
    "location": {
      "address": "S Akron Rd",
      "city": "Mountain View",
      "country": "US",
      "lat": 37.41223626796634,
      "lon": -122.05563935846753,
      "postal_code": "94043",
      "region": "CA",
      "store_number": null
    }
  },
  {
    "merchant_name": "Taco Bell",
    "location": {
      "address": "975 N Shoreline Blvd",
      "city": "Mountain View",
      "country": "US",
      "lat": 37.408283396572365,
      "lon": -122.07761420507997,
      "postal_code": "94043",
      "region": "CA",
      "store_number": null
    }
  },
  {
    "merchant_name": "Cafe at Mountain View",
    "location": {
      "address": "2000 N Shoreline Blvd Ground Floor",
      "city": "Mountain View",
      "country": "US",
      "lat": 37.421381934634134,
      "lon": -122.08048926682073,
      "postal_code": "94043",
      "region": "CA",
      "store_number": null
    }
  },
  {
    "merchant_name": "Michaels",
    "location": {
      "address": "2415 Charleston Rd BAY",
      "city": "Mountain View",
      "country": "US",
      "lat": 37.42115115775456,
      "lon": -122.09752654949324,
      "postal_code": "94043",
      "region": "CA",
      "store_number": null
    }
  },
  {
    "merchant_name": "El Taco Ranchero",
    "location": {
      "address": "920 Commercial St",
      "city": "Palo Alto",
      "country": "US",
      "lat": 37.42292498826523,
      "lon": -122.0999455944011,
      "postal_code": "94303",
      "region": "CA",
      "store_number": null
    }
  },
  {
    "merchant_name": "Topgolf",
    "location": {
      "address": "10 Topgolf Dr",
      "city": "San Jose",
      "country": "US",
      "lat": 37.42313149891283,
      "lon": -121.96976897108567,
      "postal_code": "95002",
      "region": "CA",
      "store_number": null
    }
  },
  {
    "merchant_name": "Vahl's Restaurant & Cocktail",
    "location": {
      "address": "1513 El Dorado St",
      "city": "Alviso",
      "country": "US",
      "lat": 37.425914035717845,
      "lon": -121.97728031178191,
      "postal_code": "95002",
      "region": "CA",
      "store_number": null
    }
  },
  {
    "merchant_name": "Levi's Stadium",
    "location": {
      "address": "4900 Marie P DeBartolo Way",
      "city": "Santa Clara",
      "country": "US",
      "lat": 37.403421961969535,
      "lon": -121.9693028601046,
      "postal_code": "95054",
      "region": "CA",
      "store_number": null
    }
  },
  {
    "merchant_name": "Costco Wholesale",
    "location": {
      "address": "1601 Coleman Ave",
      "city": "Santa Clara",
      "country": "US",
      "lat": 37.35709413279404,
      "lon": -121.93931206935954,
      "postal_code": "95050",
      "region": "CA",
      "store_number": null
    }
  },
  {
    "merchant_name": "In-N-Out Burger",
    "location": {
      "address": "1159 N Rengstorff Ave",
      "city": "Mountain View",
      "country": "US",
      "lat": 37.42096323919354,
      "lon": -122.09338452328237,
      "postal_code": "94043",
      "region": "CA",
      "store_number": null
    }
  },
  {
    "merchant_name": "Stanford Shopping Center",
    "location": {
      "address": "660 Stanford Shopping Center",
      "city": "Palo Alto",
      "country": "US",
      "lat": 37.443497609217744,
      "lon": -122.17130100492726,
      "postal_code": "94304",
      "region": "CA",
      "store_number": null
    }
  },
  {
    "merchant_name": "Mercedes-Benz of Palo Alto",
    "location": {
      "address": "1700 Embarcadero Rd",
      "city": "Palo Alto",
      "country": "US",
      "lat": 37.44962034072136,
      "lon": -122.1189165284505,
      "postal_code": "94303",
      "region": "CA",
      "store_number": null
    }
  },
  {
    "merchant_name": "Target",
    "location": {
      "address": "298 W McKinley Ave",
      "city": "Sunnyvale",
      "country": "US",
      "lat": 37.37390198088723,
      "lon": -122.03224243903735,
      "postal_code": "94086",
      "region": "CA",
      "store_number": null
    }
  },
  {
    "merchant_name": "Oakland Zoo",
    "location": {
      "address": "9777 Golf Links Rd",
      "city": "Oakland",
      "country": "US",
      "lat": 37.748704577234705,
      "lon": -122.14541612160274,
      "postal_code": "94605",
      "region": "CA",
      "store_number": null
    }
  },
  {
    "merchant_name": "Taqueria San Bruno",
    "location": {
      "address": "1045 San Mateo Ave",
      "city": "San Bruno",
      "country": "US",
      "lat": 37.63534559154398,
      "lon": -122.41170673187297,
      "postal_code": "94066",
      "region": "CA",
      "store_number": null
    }
  },
  {
    "merchant_name": "San Francisco Zoo",
    "location": {
      "address": "Sloat Blvd & Upper Great Hwy",
      "city": "San Francisco",
      "country": "US",
      "lat": 37.73295163158418,
      "lon": -122.50283075667083,
      "postal_code": "94132",
      "region": "CA",
      "store_number": null
    }
  },
  {
    "merchant_name": "The Home Depot",
    "location": {
      "address": "21787 Hesperian Blvd",
      "city": "Hayward",
      "country": "US",
      "lat": 37.66339409716435,
      "lon": -122.11855068946748,
      "postal_code": "94541",
      "region": "CA",
      "store_number": null
    }
  },
  {
    "merchant_name": "Best Buy",
    "location": {
      "address": "31350 Courthouse Dr",
      "city": "Union City",
      "country": "US",
      "lat": 37.601045653411816,
      "lon": -122.06427333594416,
      "postal_code": "94587",
      "region": "CA",
      "store_number": null
    }
  },
  {
    "merchant_name": "The Boiling Crab",
    "location": {
      "address": "71 Curtner Ave Suite 20",
      "city": "San Jose",
      "country": "US",
      "lat": 37.30264719197744,
      "lon": -121.86422569481577,
      "postal_code": "95125",
      "region": "CA",
      "store_number": null
    }
  },
  {
    "merchant_name": "Stan's Donut Shop",
    "location": {
      "address": "2628 Homestead Rd",
      "city": "Santa Clara",
      "country": "US",
      "lat": 37.33894246819081,
      "lon": -121.97289710725113,
      "postal_code": "95051",
      "region": "CA",
      "store_number": null
    }
  },
  {
    "merchant_name": "MEGA MART",
    "location": {
      "address": "760 E El Camino Real",
      "city": "Sunnyvale",
      "country": "US",
      "lat": 37.356833644592825,
      "lon": -122.02026617912253,
      "postal_code": "94087",
      "region": "CA",
      "store_number": null
    }
  },
  {
    "merchant_name": "Trader Joe's",
    "location": {
      "address": "2310 Homestead Rd",
      "city": "Los Altos",
      "country": "US",
      "lat": 37.337141029890354,
      "lon": -122.06743516795451,
      "postal_code": "94024",
      "region": "CA",
      "store_number": null
    }
  },
  {
    "merchant_name": "Whole Foods Market",
    "location": {
      "address": "4800 El Camino Real",
      "city": "Los Altos",
      "country": "US",
      "lat": 37.39912124562607,
      "lon": -122.1105817851399,
      "postal_code": "94022",
      "region": "CA",
      "store_number": null
    }
  },
  {
    "merchant_name": "IKEA",
    "location": {
      "address": "1700 E Bayshore Rd",
      "city": "East Palo Alto",
      "country": "US",
      "lat": 37.46108730037182,
      "lon": -122.1393682092938,
      "postal_code": "94303",
      "region": "CA",
      "store_number": null
    }
  },
  {
    "merchant_name": "Disneyland Park",
    "location": {
      "address": null,
      "city": "Anaheim",
      "country": "US",
      "lat": 33.812247607765286,
      "lon": -117.9189300965209,
      "postal_code": "92802",
      "region": "CA",
      "store_number": null
    }
  },
  {
    "merchant_name": "Shakey's Pizza Parlor",
    "location": {
      "address": "1027 S Harbor Blvd",
      "city": "Anaheim",
      "country": "US",
      "lat": 33.81957883283147,
      "lon": -117.91546670829648,
      "postal_code": "92805",
      "region": "CA",
      "store_number": null
    }
  },
  {
    "merchant_name": "SeaLegs at the Beach",
    "location": {
      "address": "17851 Pacific Coast Hwy",
      "city": "Huntington Beach",
      "country": "US",
      "lat": 33.708980434821726,
      "lon": -118.06138654260425,
      "postal_code": "92649",
      "region": "CA",
      "store_number": null
    }
  },
  {
    "merchant_name": "Romano Cucina",
    "location": {
      "address": "16595 CA-1",
      "city": "Sunset Beach",
      "country": "US",
      "lat": 33.72107863683473,
      "lon": -118.07462400752577,
      "postal_code": "90742",
      "region": "CA",
      "store_number": null
    }
  },
  {
    "merchant_name": "Big Fish Bait & Tackle",
    "location": {
      "address": "1780 Pacific Coast Hwy",
      "city": "Seal Beach",
      "country": "US",
      "lat": 33.74076609961845,
      "lon": -118.09613707625947,
      "postal_code": "90740",
      "region": "CA",
      "store_number": null
    }
  },
  {
    "merchant_name": "Ballast Point Brewing",
    "location": {
      "address": "110 N Marina Dr",
      "city": "Long Beach",
      "country": "US",
      "lat": 33.74646592320834,
      "lon": -118.11476511931109,
      "postal_code": "90803",
      "region": "CA",
      "store_number": null
    }
  },
  {
    "merchant_name": "Malainey's Grill & One Hell of an Irish Bar",
    "location": {
      "address": "168 N Marina Dr",
      "city": "Long Beach",
      "country": "US",
      "lat": 33.74718046096072,
      "lon": -118.1149627982778,
      "postal_code": "90803",
      "region": "CA",
      "store_number": null
    }
  },
  {
    "merchant_name": "The Hangout Restaurant & Beach Bar",
    "location": {
      "address": "16490 Bolsa Chica St",
      "city": "Huntington Beach",
      "country": "US",
      "lat": 33.72291906281764,
      "lon": -118.04092753275232,
      "postal_code": "92649",
      "region": "CA",
      "store_number": null
    }
  },
  {
    "merchant_name": "Hops and Fog Brewing Company",
    "location": {
      "address": "511 Lighthouse Ave",
      "city": "Pacific Grove",
      "country": "US",
      "lat": 36.62015035286096,
      "lon": -121.91611726436204,
      "postal_code": "93950",
      "region": "CA",
      "store_number": null
    }
  },
  {
    "merchant_name": "The Inn at Spanish Bay",
    "location": {
      "address": "2700 17 Mile Dr",
      "city": "Pebble Beach",
      "country": "US",
      "lat": 36.61225179163243,
      "lon": -121.94245663320466,
      "postal_code": "93953",
      "region": "CA",
      "store_number": null
    }
  },
  {
    "merchant_name": "Roy's at Pebble Beach",
    "location": {
      "address": "2700 17 Mile Dr",
      "city": "Pebble Beach",
      "country": "US",
      "lat": 36.61222672708888,
      "lon": -121.94310227799167,
      "postal_code": "93953",
      "region": "CA",
      "store_number": null
    }
  },
  {
    "merchant_name": "The Spa at Pebble Beach",
    "location": {
      "address": "1518 Cypress Dr",
      "city": "Pebble Beach",
      "country": "US",
      "lat": 36.5699133014877,
      "lon": -121.94661978197817,
      "postal_code": "93953",
      "region": "CA",
      "store_number": null
    }
  },
  {
    "merchant_name": "Casa Palmero at Pebble Beach",
    "location": {
      "address": "1518 Cypress Dr",
      "city": "Pebble Beach",
      "country": "US",
      "lat": 36.569792289454604,
      "lon": -121.94718930702315,
      "postal_code": "93953",
      "region": "CA",
      "store_number": null
    }
  },
  {
    "merchant_name": "Best Buy",
    "location": {
      "address": "63 Ranch Dr",
      "city": "Milpitas",
      "country": "US",
      "lat": 37.42793763447682,
      "lon": -121.92315817225672,
      "postal_code": "95035",
      "region": "CA",
      "store_number": null
    }
  },
  {
    "merchant_name": "Walmart Supercenter",
    "location": {
      "address": "301 Ranch Dr",
      "city": "Milpitas",
      "country": "US",
      "lat": 37.4315324486958,
      "lon": -121.92121558865063,
      "postal_code": "95035",
      "region": "CA",
      "store_number": null
    }
  },
  {
    "merchant_name": "Ava's Downtown Market & Deli",
    "location": {
      "address": "340 Castro St",
      "city": "Mountain View",
      "country": "US",
      "lat": 37.392168492784776,
      "lon": -122.08032092340264,
      "postal_code": "94041",
      "region": "CA",
      "store_number": null
    }
  },
  {
    "merchant_name": "Bloomsgiving",
    "location": {
      "address": "301 Castro St",
      "city": "Mountain View",
      "country": "US",
      "lat": 37.39234948029698,
      "lon": -122.07959917613034,
      "postal_code": "94041",
      "region": "CA",
      "store_number": null
    }
  },
  {
    "merchant_name": "CVS Pharmacy",
    "location": {
      "address": "850 California St",
      "city": "Mountain View",
      "country": "US",
      "lat": 37.392164908861844,
      "lon": -122.08099981693074,
      "postal_code": "94041",
      "region": "CA",
      "store_number": null
    }
  },
  {
    "merchant_name": "PetSmart",
    "location": {
      "address": "2440 E Charleston Rd",
      "city": "Mountain View",
      "country": "US",
      "lat": 37.4227318305945,
      "lon": -122.0961147341856,
      "postal_code": "94043",
      "region": "CA",
      "store_number": null
    }
  },
  {
    "merchant_name": "Greenberg Design Gallery",
    "location": {
      "address": "908 Industrial Ave Unit A",
      "city": "Palo Alto",
      "country": "US",
      "lat": 37.42245556007942,
      "lon": -122.0983434318021,
      "postal_code": "94303",
      "region": "CA",
      "store_number": null
    }
  },
  {
    "merchant_name": "Patagonia",
    "location": {
      "address": "525 Alma St",
      "city": "Palo Alto",
      "country": "US",
      "lat": 37.443170081525835,
      "lon": -122.16293864087673,
      "postal_code": "94301",
      "region": "CA",
      "store_number": null
    }
  },
  {
    "merchant_name": "Center Tailoring Alterations & Tuxedo",
    "location": {
      "address": "257 Castro St",
      "city": "Mountain View",
      "country": "US",
      "lat": 37.39300055272411,
      "lon": -122.07909228435659,
      "postal_code": "94041",
      "region": "CA",
      "store_number": null
    }
  },
  {
    "merchant_name": "Urban Outfitters",
    "location": {
      "address": "660 Stanford Shopping Center",
      "city": "Palo Alto",
      "country": "US",
      "lat": 37.44431571365312,
      "lon": -122.17136399712622,
      "postal_code": "94304",
      "region": "CA",
      "store_number": null
    }
  },
  {
    "merchant_name": "Boba Bliss",
    "location": {
      "address": "685 San Antonio Rd Suite 15",
      "city": "Mountain View",
      "country": "US",
      "lat": 37.4014902774058,
      "lon": -122.1131030052077,
      "postal_code": "94040",
      "region": "CA",
      "store_number": null
    }
  },
  {
    "merchant_name": "ARCO",
    "location": {
      "address": "988 N San Antonio Rd",
      "city": "Los Altos",
      "country": "US",
      "lat": 37.399858060181785,
      "lon": -122.11457683074664,
      "postal_code": "94022",
      "region": "CA",
      "store_number": null
    }
  },
  {
    "merchant_name": "Target",
    "location": {
      "address": "555 Showers Dr",
      "city": "Mountain View",
      "country": "US",
      "lat": 37.4011490437953,
      "lon": -122.10621180578093,
      "postal_code": "94040",
      "region": "CA",
      "store_number": null
    }
  },
  {
    "merchant_name": "Jack in the Box",
    "location": {
      "address": "4896 El Camino Real",
      "city": "Los Altos",
      "country": "US",
      "lat": 37.39836043055535,
      "lon": -122.10881375685237,
      "postal_code": "94022",
      "region": "CA",
      "store_number": null
    }
  },
  {
    "merchant_name": "Whole Foods Market",
    "location": {
      "address": "4800 El Camino Real",
      "city": "Los Altos",
      "country": "US",
      "lat": 37.39902055383707,
      "lon": -122.11068223256696,
      "postal_code": "94022",
      "region": "CA",
      "store_number": null
    }
  },
  {
    "merchant_name": "Walmart Supercenter",
    "location": {
      "address": "600 Showers Dr",
      "city": "Mountain View",
      "country": "US",
      "lat": 37.40089756963302,
      "lon": -122.10969235046318,
      "postal_code": "94040",
      "region": "CA",
      "store_number": null
    }
  },
  {
    "merchant_name": "Zareen's",
    "location": {
      "address": "1477 Plymouth St Suite C",
      "city": "Mountain View",
      "country": "US",
      "lat": 37.416225701894625,
      "lon": -122.07952891934369,
      "postal_code": "94043",
      "region": "CA",
      "store_number": null
    }
  },
  {
    "merchant_name": "Chick-fil-A",
    "location": {
      "address": "1950 El Camino Real",
      "city": "Santa Clara",
      "country": "US",
      "lat": 37.3520621034523,
      "lon": -121.958721527957,
      "postal_code": "95050",
      "region": "CA",
      "store_number": null
    }
  },
  {
    "merchant_name": "Santana Row",
    "location": {
      "address": "377 Santana Row",
      "city": "San Jose",
      "country": "US",
      "lat": 37.322104070839266,
      "lon": -121.94828879089897,
      "postal_code": "95128",
      "region": "CA",
      "store_number": null
    }
  },
  {
    "merchant_name": "Fogo de Chao Brazilian Steakhouse",
    "location": {
      "address": "377 Santana Row #1090",
      "city": "San Jose",
      "country": "US",
      "lat": 37.32027377717806,
      "lon": -121.94975698968193,
      "postal_code": "95128",
      "region": "CA",
      "store_number": null
    }
  },
  {
    "merchant_name": "lululemon",
    "location": {
      "address": "334 Santana Row Unit 1035",
      "city": "San Jose",
      "country": "US",
      "lat": 37.32215193105227,
      "lon": -121.94750979620395,
      "postal_code": "95128",
      "region": "CA",
      "store_number": null
    }
  },
  {
    "merchant_name": "Nike Santana Row",
    "location": {
      "address": "333 Santana Row #1000",
      "city": "San Jose",
      "country": "US",
      "lat": 37.322125120636095,
      "lon": -121.94829352369862,
      "postal_code": "95128",
      "region": "CA",
      "store_number": null
    }
  },
  {
    "merchant_name": "Aloe Pilates",
    "location": {
      "address": "860 S Winchester Blvd Ste A",
      "city": "San Jose",
      "country": "US",
      "lat": 37.31186852993601,
      "lon": -121.94973255611251,
      "postal_code": "95128",
      "region": "CA",
      "store_number": null
    }
  }
]
